City_ID,City,Lat,Lng,Max Temp,Humidity,Cloudiness,Wind Speed,Country,Date
0,invercargill,-46.4,168.35,61.81,45,47,15.88,NZ,1702258437
1,dudinka,69.4058,86.1778,-16.38,97,100,11.99,RU,1702258438
2,bredasdorp,-34.5322,20.0403,58.68,84,0,3.04,ZA,1702258438
3,albany,42.6001,-73.9662,45.18,91,100,3.0,US,1702258196
4,whitehorse,60.7161,-135.0538,9.37,83,100,4.61,CA,1702258181
5,georgetown,5.4112,100.3354,84.13,83,20,5.75,MY,1702258297
6,usinsk,65.9939,57.5281,-19.93,100,100,1.01,RU,1702258439
7,kailua-kona,19.6406,-155.9956,82.36,77,40,5.75,US,1702258440
8,west island,-12.1568,96.8225,80.58,74,75,10.36,CC,1702258171
9,margaret river,-33.95,115.0667,75.78,29,0,5.68,AU,1702258440
10,mingshui,36.7167,117.5,29.23,92,100,12.53,CN,1702258440
11,vernon,50.2581,-119.2691,40.3,90,100,3.44,CA,1702258295
12,rio grande,-32.035,-52.0986,67.95,87,98,17.54,BR,1702258441
13,puerto natales,-51.7236,-72.4875,43.75,84,68,4.21,CL,1702258441
14,sitka,57.0531,-135.33,37.29,81,75,5.75,US,1702258442
15,bilibino,68.0546,166.4372,-14.51,98,38,4.5,RU,1702258442
16,aykhal,66.0,111.5,-16.67,98,100,5.39,RU,1702258442
17,coos bay,43.3665,-124.2179,56.23,94,100,6.91,US,1702258409
18,qaqortoq,60.7167,-46.0333,13.14,74,10,3.76,GL,1702258443
19,sullivan,36.5168,-82.5332,40.77,86,100,11.5,US,1702258443
20,loreto,22.2667,-101.9667,56.32,68,100,15.12,MX,1702258443
21,vorkuta,67.5,64.0,-12.89,100,100,7.87,RU,1702258192
22,severo-yeniseyskiy,60.3725,93.0408,-37.43,100,100,1.01,RU,1702258444
23,mount isa,-20.7333,139.5,83.97,39,7,13.8,AU,1702258444
24,waitangi,-43.9535,-176.5597,53.11,59,0,5.01,NZ,1702258445
25,rakops,-21.0167,24.3333,69.12,80,96,6.24,BW,1702258445
26,bridgewater,44.3835,-64.5155,46.11,99,100,8.05,CA,1702258352
27,port-aux-francais,-49.35,70.2167,39.42,79,75,21.27,TF,1702258446
28,sao jose da coroa grande,-8.8978,-35.1478,77.81,79,2,7.23,BR,1702258446
29,jamestown,42.097,-79.2353,40.59,90,100,8.05,US,1702258256
30,el calafate,-50.3408,-72.2768,48.96,77,55,6.93,AR,1702258447
31,saipan,15.1355,145.701,86.7,74,0,12.66,MP,1702258447
32,talnakh,69.4865,88.3972,-16.8,98,100,10.11,RU,1702258447
33,adamstown,-25.066,-130.1015,70.32,57,0,7.14,PN,1702258192
34,edinburgh of the seven seas,-37.0676,-12.3116,56.62,70,97,16.6,SH,1702258178
35,ushuaia,-54.8,-68.3,46.06,53,0,11.5,AR,1702258188
36,badger,64.8,-147.5333,0.81,74,0,0.0,US,1702258449
37,punta arenas,-53.15,-70.9167,46.51,61,0,3.44,CL,1702258449
38,bethel,41.3712,-73.414,61.21,89,100,3.0,US,1702258449
39,gorgan,36.8387,54.4348,51.76,94,75,0.0,IR,1702258450
40,port mathurin,-19.6833,63.4167,78.91,76,100,7.87,MU,1702258450
41,papatowai,-46.5619,169.4708,64.4,40,81,15.35,NZ,1702258450
42,kingston,17.997,-76.7936,83.35,75,20,17.27,JM,1702258435
43,arenal,8.4593,-73.9433,80.83,79,99,1.95,CO,1702258451
44,mount pearl,47.5166,-52.7813,29.84,91,0,8.05,CA,1702258451
45,as sulayyil,20.4607,45.5779,53.85,31,35,4.7,SA,1702258452
46,port elizabeth,-33.918,25.5701,59.09,92,0,4.61,ZA,1702258200
47,new norfolk,-42.7826,147.0587,72.72,23,13,3.2,AU,1702258452
48,tiksi,71.6872,128.8694,-14.44,100,100,5.23,RU,1702258453
49,manokwari,-0.8667,134.0833,82.51,73,100,5.17,ID,1702258194
50,anadyr,64.75,177.4833,-16.01,82,20,11.18,RU,1702258176
51,turinsk,58.0458,63.696,-26.64,98,8,4.94,RU,1702258454
52,hilo,19.7297,-155.09,78.24,95,100,5.01,US,1702258454
53,tazovsky,67.4667,78.7,-13.13,97,100,10.49,RU,1702258198
54,razdol'noye,45.7708,33.4878,42.03,93,94,3.96,UA,1702258455
55,khandyga,62.6667,135.6,-27.83,97,100,1.61,RU,1702258166
56,chonchi,-42.6128,-73.8092,54.61,96,96,2.77,CL,1702258455
57,ravar,31.2656,56.8055,51.37,22,39,1.79,IR,1702258456
58,lazaro cardenas,17.9583,-102.2,79.45,70,100,2.01,MX,1702258364
59,kodiak,57.79,-152.4072,42.31,87,100,13.8,US,1702258206
60,yebaishou,41.3975,119.6408,13.48,68,100,8.97,CN,1702258456
61,crockett,31.3182,-95.4566,41.63,81,0,0.0,US,1702258457
62,olonkinbyen,70.9221,-8.7187,26.17,64,100,9.57,SJ,1702258457
63,grytviken,-54.2811,-36.5092,41.54,95,100,14.0,GS,1702258458
64,arteche,12.2645,125.4048,81.52,87,100,8.81,PH,1702258458
65,nova xavantina,-14.6667,-52.35,75.72,74,86,3.36,BR,1702258458
66,mahibadhoo,3.7833,72.9667,83.14,75,98,7.7,MV,1702258459
67,pisco,-13.7,-76.2167,68.05,77,0,14.97,PE,1702258459
68,leh,34.1667,77.5833,14.14,38,97,3.91,IN,1702258459
69,coyhaique,-45.5752,-72.0662,55.35,67,100,3.44,CL,1702258311
70,ribeira grande,38.5167,-28.7,63.77,75,99,15.01,PT,1702258460
71,blackmans bay,-43.0167,147.3167,71.53,56,7,1.99,AU,1702258460
72,kargil,34.5667,76.1,19.76,33,100,1.86,IN,1702258461
73,casablanca,33.5928,-7.6192,64.33,88,13,4.0,MA,1702258461
74,stanley,54.868,-1.6985,42.28,96,75,5.75,GB,1702258461
75,seddouk,36.5472,4.6861,54.55,73,5,4.61,DZ,1702258461
76,nova sintra,14.8667,-24.7167,73.35,74,100,8.52,CV,1702258181
77,iskateley,67.6803,53.1512,-8.99,91,100,11.01,RU,1702258439
78,calvinia,-31.4707,19.776,57.36,50,0,5.53,ZA,1702258462
79,yellowknife,62.456,-114.3525,10.92,92,100,18.41,CA,1702258463
80,thompson,55.7435,-97.8558,5.16,85,100,3.44,CA,1702258463
81,lubumbashi,-11.6609,27.4794,64.11,96,100,2.48,CD,1702258463
82,college,64.8569,-147.8028,-9.54,75,75,0.0,US,1702258172
83,plettenberg bay,-34.0527,23.3716,58.89,84,0,3.24,ZA,1702258464
84,coahuayana de hidalgo,18.7,-103.6583,78.93,68,100,2.13,MX,1702258464
85,puerto carreno,6.189,-67.4859,83.37,66,93,4.23,CO,1702258464
86,arraial do cabo,-22.9661,-42.0278,73.4,80,100,10.94,BR,1702258239
87,jijiga,9.35,42.8,56.64,35,6,6.98,ET,1702258465
88,baoqing,46.3317,132.2111,0.03,74,4,6.53,CN,1702258465
89,wailua homesteads,22.0669,-159.378,79.59,80,20,9.22,US,1702258404
90,petauke,-14.2426,31.3253,71.35,68,100,7.65,ZM,1702258466
91,dzilam gonzalez,21.2833,-88.9333,72.54,88,100,9.22,MX,1702258466
92,wenatchee,47.4235,-120.3103,41.38,91,100,3.44,US,1702258466
93,ta`u,-14.2336,-169.5144,77.29,92,100,17.43,AS,1702258467
94,nebraska city,40.6767,-95.8592,39.24,60,40,6.91,US,1702258400
95,am timan,11.0297,20.2827,71.24,16,35,9.82,TD,1702258272
96,farsan,32.2569,50.561,26.64,31,100,2.3,IR,1702258468
97,longyearbyen,78.2186,15.6401,31.84,74,75,12.66,SJ,1702258468
98,onega,63.9061,38.1404,8.53,92,100,10.2,RU,1702258468
99,egilsstadir,65.2653,-14.3948,21.11,93,100,2.3,IS,1702258469
100,navoiy,40.0844,65.3792,38.68,81,100,4.61,UZ,1702258469
101,st. paul,44.9444,-93.0933,25.36,84,100,5.75,US,1702258469
102,newman,37.3138,-121.0208,55.29,45,100,1.99,US,1702258381
103,iqaluit,63.7506,-68.5145,24.53,79,100,12.66,CA,1702258172
104,alice springs,-23.7,133.8833,63.95,39,100,10.36,AU,1702258241
105,pokhvistnevo,53.6524,52.1274,-12.5,93,83,5.39,RU,1702258470
106,morehead city,34.7229,-76.726,66.25,88,100,14.97,US,1702258471
107,kununurra,-15.7667,128.7333,85.98,45,33,12.66,AU,1702258471
108,pionerskiy,54.9508,20.2275,30.15,86,100,17.45,RU,1702258471
109,orkney,-26.9802,26.6727,62.64,79,100,9.62,ZA,1702258471
110,eyl,7.9803,49.8164,75.76,76,50,14.79,SO,1702258472
111,fale old settlement,-9.3852,-171.2468,83.93,77,96,15.5,TK,1702258472
112,bubaque,11.2833,-15.8333,82.65,62,99,9.8,GW,1702258387
113,yuktae-dong,40.0247,128.1597,35.47,86,100,19.22,KP,1702258473
114,aldan,58.6031,125.3894,-23.37,95,100,5.73,RU,1702258473
115,ghadamis,30.1337,9.5007,49.73,57,0,5.55,LY,1702258474
116,colonia,50.9333,6.95,53.06,76,40,11.5,DE,1702258422
117,alofi,-19.0595,-169.9187,76.89,94,100,6.91,NU,1702258474
118,westport,41.1415,-73.3579,61.47,91,100,17.27,US,1702258474
119,sisimiut,66.9395,-53.6735,24.49,86,100,11.7,GL,1702258475
120,harstad,68.799,16.5293,29.16,87,78,8.01,NO,1702258475
121,masterton,-40.9597,175.6575,62.89,36,0,7.87,NZ,1702258449
122,kotabumi,-4.8333,104.9,84.16,68,95,3.29,ID,1702258476
123,bamboo flat,11.7,92.7167,77.09,94,20,2.3,IN,1702258476
124,fisterra,42.9049,-9.2629,64.74,86,100,22.66,ES,1702258476
125,nyurba,63.2842,118.3319,-19.37,97,100,5.84,RU,1702258446
126,pingzhuang,42.0372,119.2889,11.25,45,100,9.01,CN,1702258477
127,talpa de allende,20.3833,-104.8167,66.67,63,100,2.3,MX,1702258477
128,lebu,-37.6167,-73.65,55.09,87,100,16.91,CL,1702258304
129,sittwe,20.15,92.9,68.94,81,0,5.46,MM,1702258478
130,nadym,65.5333,72.5167,-24.38,93,89,9.35,RU,1702258226
131,bandarbeyla,9.4942,50.8122,76.96,73,17,20.94,SO,1702258201
132,geneina,13.45,22.45,65.82,17,100,7.23,SD,1702258478
133,walvis bay,-22.9575,14.5053,62.1,77,58,8.05,NA,1702258479
134,carnarvon,-24.8667,113.6333,87.39,25,0,17.81,AU,1702258479
135,ancud,-41.8697,-73.8203,53.38,89,100,3.04,CL,1702258479
136,isafjordur,66.0755,-23.124,27.21,93,89,7.14,IS,1702258201
137,tommot,58.9564,126.2925,-17.79,92,100,10.56,RU,1702258480
138,edd,13.9297,41.6925,78.6,61,13,15.23,ER,1702258480
139,ust-nera,64.5667,143.2,-5.37,98,100,8.77,RU,1702258181
140,nayoro,44.3506,142.4578,25.11,81,78,14.92,JP,1702258481
141,drouin,-38.1333,145.85,68.22,93,100,5.03,AU,1702258481
142,torun,53.0137,18.5981,39.4,97,100,10.22,PL,1702258325
143,constantia,44.1833,28.65,32.7,84,88,9.35,RO,1702258427
144,selkirk,50.1436,-96.8845,17.67,94,21,6.2,CA,1702258482
145,qarqin,37.4185,66.0436,50.54,38,87,11.48,AF,1702258482
146,vorgashor,67.5833,63.95,-13.0,100,100,8.55,RU,1702258482
147,starobaltachevo,56.0013,55.9213,-19.91,97,21,7.54,RU,1702258483
148,san antonio oeste,-40.7319,-64.9477,82.26,19,80,16.22,AR,1702258483
149,mil'kovo,55.6078,37.7956,16.34,94,99,11.3,RU,1702258483
150,brisas de zicatela,15.8369,-97.0419,81.12,61,0,3.44,MX,1702258209
151,fada,9.5667,8.3,65.88,23,0,6.26,NG,1702258484
152,faya-largeau,17.9257,19.1043,66.15,27,0,23.17,TD,1702258485
153,hammerfest,70.6634,23.6821,25.25,74,75,6.91,NO,1702258439
154,tara,56.8944,74.371,-21.68,96,38,7.4,RU,1702258355
155,la'ie,21.6477,-157.9253,85.05,76,20,4.0,US,1702258196
156,dryden,49.7833,-92.7503,21.49,86,100,5.75,CA,1702258486
157,hithadhoo,-0.6,73.0833,82.04,76,99,3.94,MV,1702258486
158,puerto ayora,-0.7393,-90.3518,75.47,86,35,7.47,EC,1702258486
159,ystalyfera,51.7672,-3.7808,51.46,81,100,16.98,GB,1702258486
160,quibala,-10.7337,14.98,62.69,99,100,0.43,AO,1702258487
161,kayangel,8.0823,134.7173,83.75,78,11,15.88,PW,1702258446
162,mogok,22.9167,96.5,64.02,69,11,1.32,MM,1702258487
163,kristiansund,63.1115,7.732,32.65,74,40,5.75,NO,1702258488
164,changping,40.2186,116.2197,26.24,83,98,2.26,CN,1702258488
165,flying fish cove,-10.4217,105.6791,82.08,74,40,10.36,CX,1702258299
166,tura,25.5198,90.2201,62.47,61,0,1.99,IN,1702258488
167,aasiaat,68.7098,-52.8699,26.17,89,100,12.97,GL,1702258489
168,trinidad,-14.8333,-64.9,80.31,73,82,3.91,BO,1702258466
169,paranhos,-23.8928,-55.4311,65.8,98,96,3.47,BR,1702258489
170,karratha,-20.7377,116.8463,86.83,16,6,20.22,AU,1702258388
171,wad rawah,15.1603,33.1397,74.62,22,2,9.1,SD,1702258490
172,tinajo,29.0788,-13.7081,68.88,32,0,4.61,ES,1702258490
173,moree,-29.4667,149.85,89.74,24,0,9.64,AU,1702258490
174,hamilton,39.1834,-84.5333,34.77,80,100,11.5,US,1702258491
175,goundam,16.4145,-3.6708,66.58,20,3,10.11,ML,1702258491
176,geraldton,-28.7667,114.6,86.41,12,0,25.32,AU,1702258286
177,woolgoolga,-30.1106,153.2007,80.47,58,0,13.56,AU,1702258491
178,suva,-18.1416,178.4415,81.88,57,40,12.66,FJ,1702258492
179,klyuchi,52.2667,79.1667,-7.37,89,16,6.4,RU,1702258492
180,lihue,21.9789,-159.3672,80.19,77,20,9.22,US,1702258492
181,rivera,-30.9053,-55.5508,61.99,96,0,8.08,UY,1702258493
182,namibe,-15.1961,12.1522,71.19,78,88,5.91,AO,1702258493
183,lisala,2.15,21.5167,72.07,85,93,0.4,CD,1702258494
184,utrik,11.2278,169.8474,80.94,77,100,19.46,MH,1702258494
185,sangueya,10.7,-14.3667,74.34,82,100,1.05,GN,1702258494
186,mana,5.6592,-53.7767,77.85,91,33,7.54,GF,1702258494
187,bardsir,29.9227,56.5743,44.69,24,43,3.53,IR,1702258495
188,ghormach,35.7306,63.7826,50.85,35,43,3.6,AF,1702258495
189,baoding,38.8511,115.4903,26.98,83,92,0.92,CN,1702258495
190,taber,49.8167,-112.1518,25.45,87,3,7.18,CA,1702258207
191,chichli,22.8333,78.8167,60.89,71,0,2.51,IN,1702258496
192,muroto-misakicho,33.2833,134.15,62.37,73,100,12.08,JP,1702258496
193,albertina,-22.2008,-46.6158,63.16,94,100,5.17,BR,1702258496
194,hanzhong,33.0728,107.0303,48.51,75,76,3.76,CN,1702258497
195,palm beach gardens,26.8234,-80.1386,76.98,90,20,6.91,US,1702258340
196,port shepstone,-30.7414,30.455,67.08,83,100,6.98,ZA,1702258497
197,lepsy,46.235,78.9456,21.61,68,100,5.12,KZ,1702258498
198,kalevala,65.2,31.1667,8.1,96,99,5.99,RU,1702258498
199,bloemfontein,-29.1211,26.214,60.28,88,100,10.36,ZA,1702258498
200,port lincoln,-34.7333,135.8667,63.28,91,100,13.4,AU,1702258498
201,east london,-33.0153,27.9116,61.3,76,99,4.47,ZA,1702258213
202,gryazovets,58.88,40.2525,7.2,92,100,11.52,RU,1702258499
203,kili,5.6439,169.1211,82.13,82,60,13.65,MH,1702258500
204,i-n-salah,27.1935,2.4607,55.65,58,0,11.97,DZ,1702258500
205,east ballina,-28.8667,153.5833,82.8,57,45,9.6,AU,1702258500
206,schiffdorf,53.5333,8.65,49.14,88,100,16.73,DE,1702258501
207,hermanus,-34.4187,19.2345,60.35,81,3,8.19,ZA,1702258501
208,papao,-17.75,-149.55,87.48,82,47,28.01,PF,1702258501
209,bakanas,44.8081,76.2772,22.78,60,100,3.2,KZ,1702258502
210,madalena,41.2162,-8.3345,61.38,91,100,4.99,PT,1702258502
211,progreso,21.2833,-89.6667,74.1,82,100,18.3,MX,1702258502
212,vila velha,-20.3297,-40.2925,75.94,82,75,3.0,BR,1702258503
213,robore,-18.3333,-59.75,76.08,79,100,5.57,BO,1702258503
214,sinjai,-5.1241,120.253,88.09,61,100,3.04,ID,1702258503
215,ola,59.5833,151.2833,28.15,80,100,19.44,RU,1702258436
216,kone,-21.0595,164.8658,87.69,40,100,6.15,NC,1702258256
217,bonthe,7.5264,-12.505,79.52,81,51,5.14,SL,1702258505
218,ibipeba,-11.6408,-42.0111,72.3,69,42,8.37,BR,1702258506
219,taltal,-25.4,-70.4833,62.26,84,81,1.9,CL,1702258506
220,weno,7.4515,151.8468,87.75,70,75,8.05,FM,1702258216
221,suyo,16.9762,120.5254,88.2,50,37,3.67,PH,1702258507
222,tomohon,1.3346,124.8392,81.54,66,59,4.43,ID,1702258507
223,holualoa,19.6228,-155.9522,78.64,77,40,5.75,US,1702258507
224,taulaga,-11.0553,-171.0883,82.2,81,100,15.03,AS,1702258508
225,ilulissat,69.2167,-51.1,28.42,74,100,12.66,GL,1702258508
226,chengzihe,45.3333,131.0667,-0.44,77,86,4.14,CN,1702258508
227,tieli,46.95,128.05,-9.24,87,24,3.31,CN,1702258509
228,vilyuchinsk,52.9306,158.4028,35.87,92,100,11.39,RU,1702258374
229,pangody,65.85,74.4859,-24.57,96,100,8.75,RU,1702258509
230,taiyuan,37.8694,112.5603,24.66,74,20,6.71,CN,1702258510
231,las palmas,28.4204,-14.0131,63.39,45,0,4.61,ES,1702258510
232,queenstown,-31.8976,26.8753,52.41,91,100,2.3,ZA,1702258215
233,fortuna,40.5982,-124.1573,55.98,83,100,0.0,US,1702258443
234,mgandu,-5.95,34.1333,62.76,95,99,6.96,TZ,1702258511
235,rongelap,11.1635,166.8941,81.28,78,100,20.13,MH,1702258358
236,angaur state,6.906,134.13,83.79,78,90,14.36,PW,1702258511
237,barra de santo antonio,-9.4047,-35.5072,74.48,81,0,7.94,BR,1702258512
238,callao,-12.0667,-77.15,71.73,77,75,14.97,PE,1702258512
239,safford,32.834,-109.7076,51.12,22,0,5.75,US,1702258512
240,irituia,-1.7711,-47.4381,76.78,87,26,4.18,BR,1702258513
241,baker city,44.7749,-117.8344,32.59,94,100,0.0,US,1702258513
242,kozhevnikovo,56.2589,83.9714,-18.04,93,26,8.23,RU,1702258513
243,port saint john's,-31.6229,29.5448,64.72,86,100,1.01,ZA,1702258514
244,vadso,70.0744,29.7487,14.16,79,75,19.57,NO,1702258514
245,tromso,69.6496,18.957,26.62,63,100,16.11,NO,1702258430
246,ngorongoro,-3.2397,35.4875,54.7,95,92,3.04,TZ,1702258515
247,choma,-16.8065,26.9531,69.51,72,97,5.57,ZM,1702258515
248,tosontsengel,48.7567,98.2839,-16.47,98,100,0.89,MN,1702258515
249,hawaiian paradise park,19.5933,-154.9731,78.03,93,100,3.44,US,1702258516
250,araruna,-6.5583,-35.7417,69.98,76,2,4.68,BR,1702258516
251,roma,43.2128,-75.4557,40.95,95,100,4.61,US,1702258516
252,yayva,59.3303,57.2641,-24.02,100,100,1.9,RU,1702258517
253,uglegorsk,49.0833,142.0333,6.6,86,100,17.34,RU,1702258517
254,caleta de carquin,-11.0925,-77.6267,68.32,85,100,10.2,PE,1702258518
255,roscrea,52.9511,-7.8017,47.53,90,55,14.09,IE,1702258518
256,bria,6.5423,21.9863,73.06,56,100,4.0,CF,1702258519
257,juneau,58.3019,-134.4197,35.6,34,100,6.91,US,1702258391
258,grebenhain,50.4892,9.3386,46.9,88,99,14.0,DE,1702258520
259,minas de marcona,-15.2119,-75.1103,60.69,78,86,9.24,PE,1702258520
260,naryn,41.4287,75.9911,14.59,62,63,6.08,KG,1702258520
261,concepcion del oro,24.6333,-101.4167,50.23,49,13,5.59,MX,1702258521
262,nelson bay,-32.7167,152.15,86.09,66,14,8.99,AU,1702258521
263,kalabo,-14.97,22.6814,69.19,88,91,4.94,ZM,1702258521
264,jalalabad,34.4265,70.4515,48.74,21,36,1.32,AF,1702258522
265,merizo village,13.2658,144.6691,88.36,81,100,14.61,GU,1702258522
266,san antonio de pale,-1.4014,5.6325,81.25,79,97,13.38,GQ,1702258455
267,at taj,24.2049,23.2857,51.89,58,0,9.08,LY,1702258523
268,new castle,41.0037,-80.347,37.42,74,100,5.75,US,1702258323
269,tolanaro,-25.0319,46.9987,77.07,94,20,16.11,MG,1702258523
270,kurtamysh,54.9103,64.4319,-20.43,96,17,8.01,RU,1702258524
271,nar'yan-mar,67.6713,53.087,-8.9,91,100,11.01,RU,1702258524
272,enewetak,11.3474,162.3373,81.91,76,98,18.39,MH,1702258524
273,nuuk,64.1835,-51.7216,27.21,74,75,3.44,GL,1702258524
274,tofol,5.3248,163.0078,83.98,79,75,6.91,FM,1702258525
275,luganville,-15.5333,167.1667,80.28,65,100,10.56,VU,1702258525
276,tsiombe,-25.3,45.4833,74.5,86,95,2.55,MG,1702258464
277,kruisfontein,-34.0033,24.7314,56.88,92,0,3.83,ZA,1702258426
278,massawa,15.6097,39.45,80.31,70,46,2.73,ER,1702258387
279,san francisco,37.7749,-122.4194,55.94,64,75,5.99,US,1702258336
280,antofagasta,-23.65,-70.4,65.48,79,6,2.73,CL,1702258330
281,kisangani,0.5167,25.2,68.63,99,100,1.16,CD,1702258527
282,qeshm,26.9581,56.2719,58.89,51,100,3.09,IR,1702258527
283,rumoi,43.9344,141.6428,28.24,72,100,18.1,JP,1702258527
284,masvingo,-20.0637,30.8277,67.19,89,100,6.91,ZW,1702258528
285,diego de almagro,-26.3667,-70.05,63.95,51,10,2.89,CL,1702258479
286,cole harbour,44.6724,-63.4751,44.71,97,100,1.01,CA,1702258528
287,kasongo-lunda,-6.4667,16.8167,69.78,99,100,1.1,CD,1702258529
288,aldama,22.9167,-98.0667,61.5,35,52,7.94,MX,1702258529
289,avarua,-21.2078,-159.775,80.65,78,75,28.77,CK,1702258530
290,horta,38.5333,-28.6333,62.02,74,99,18.99,PT,1702258530
291,hassi messaoud,31.6804,6.0729,55.11,46,81,8.55,DZ,1702258530
292,aibak,36.2647,68.0155,49.41,32,100,6.31,AF,1702258531
293,salym,60.0625,71.4789,-26.41,98,8,3.27,RU,1702258531
294,macau,22.2006,113.5461,77.72,94,40,2.3,MO,1702258531
295,namie,37.4833,141.0,53.98,65,100,7.92,JP,1702258451
296,nikolayevsk-on-amure,53.1406,140.73,-4.49,89,100,15.37,RU,1702258532
297,mukalla,14.5425,49.1242,72.16,59,4,4.88,YE,1702258287
298,port alfred,-33.5906,26.891,62.19,94,36,2.75,ZA,1702258533
299,gokwe,-18.2048,28.9349,66.9,77,77,7.63,ZW,1702258533
300,nema,57.5067,50.5011,-11.09,94,100,7.18,RU,1702258533
301,camana,-16.6228,-72.7111,68.36,82,100,6.46,PE,1702258533
302,tan-tan,28.438,-11.1032,71.46,27,100,10.4,MA,1702258534
303,andrews,32.3187,-102.5457,45.66,26,0,6.91,US,1702258534
304,toliara,-23.35,43.6667,77.0,74,3,5.23,MG,1702258534
305,tlahualilo de zaragoza,26.1167,-103.45,53.67,34,0,0.98,MX,1702258428
306,taroa,8.7058,171.2275,81.82,76,71,20.94,MH,1702258477
307,malanje,-9.5402,16.341,64.15,99,100,2.89,AO,1702258535
308,margate,51.3813,1.3862,52.9,74,80,18.01,GB,1702258274
309,subaykhan,34.8544,40.6083,57.36,69,50,9.26,SY,1702258536
310,jieshi,22.8134,115.8257,74.71,81,7,4.65,CN,1702258536
311,arroyo,41.6096,-4.7969,51.6,89,0,10.36,ES,1702258536
312,mandalgovi,45.7625,106.2708,3.27,93,100,6.62,MN,1702258537
313,cascais,38.6979,-9.4215,62.06,97,10,8.99,PT,1702258256
314,wanning,18.8003,110.3967,78.44,77,65,2.84,CN,1702258537
315,ampanihy,-24.7,44.75,73.24,73,40,1.45,MG,1702258537
316,tadine,-21.55,167.8833,77.43,57,94,16.69,NC,1702258538
317,keflavik,64.0049,-22.5624,36.03,93,100,9.22,IS,1702258538
318,vilyuysk,63.7553,121.6247,-20.25,97,100,7.29,RU,1702258511
319,lompoc,34.6391,-120.4579,63.79,57,0,4.61,US,1702258460
320,saldanha,-33.0117,17.9442,57.25,88,0,13.42,ZA,1702258539
321,port isabel,26.0734,-97.2086,56.01,59,0,0.0,US,1702258539
322,acapulco de juarez,16.8634,-99.8901,82.22,83,75,3.44,MX,1702258471
323,puerto baquerizo moreno,-0.9,-89.6,74.89,88,22,10.2,EC,1702258540
324,dinguiraye,11.3,-10.7167,68.85,23,59,3.13,GN,1702258540
325,khash,28.2211,61.2158,49.06,28,2,2.37,IR,1702258540
326,boyalik,41.2634,28.6314,43.77,90,100,2.39,TR,1702258541
327,mansa,29.9833,75.3833,53.62,27,1,1.16,IN,1702258541
328,tiquipaya,-17.3382,-66.2189,66.92,64,75,11.5,BO,1702258541
329,cidreira,-30.1811,-50.2056,68.07,92,100,17.52,BR,1702258250
330,olsztynek,53.5837,20.2847,29.84,99,100,10.07,PL,1702258542
331,suffolk,40.8668,-72.7996,59.86,94,100,16.11,US,1702258542
332,del rio,29.3627,-100.8968,54.0,27,0,4.61,US,1702258542
333,punta del este,-34.9667,-54.95,66.31,91,0,7.0,UY,1702258543
334,praia da vitoria,38.7333,-27.0667,63.75,77,20,13.47,PT,1702258543
335,castillos,-34.1667,-53.8333,60.01,96,6,5.1,UY,1702258543
336,san juan de miraflores,-12.1629,-76.9635,70.18,78,87,6.15,PE,1702258543
337,nanfeng,23.7434,111.7959,80.02,63,21,1.19,CN,1702258544
338,atafu village,-8.5421,-172.5159,83.53,77,100,14.76,TK,1702258544
339,kourou,5.1552,-52.6478,80.65,90,73,6.17,GF,1702258544
340,hunchun,42.8675,130.3581,19.09,24,94,5.59,CN,1702258545
341,shadrinsk,56.0852,63.6335,-23.22,95,10,7.87,RU,1702258545
342,uturoa,-16.7333,-151.4333,80.62,80,23,22.77,PF,1702258545
343,hasaki,35.7333,140.8333,64.29,65,83,2.48,JP,1702258546
344,dalandzadgad,43.5708,104.425,20.17,54,5,2.77,MN,1702258546
345,kavieng,-2.5744,150.7967,83.16,79,27,10.67,PG,1702258546
346,mount gambier,-37.8333,140.7667,61.99,90,100,13.24,AU,1702258252
347,belmonte,-15.8631,-38.8828,76.3,86,0,6.17,BR,1702258547
348,jincheng,35.5022,112.8328,28.62,91,100,1.63,CN,1702258547
349,kumagunnam,13.1551,10.6342,62.71,28,61,11.88,NG,1702258547
350,tralee,52.2704,-9.7026,47.61,90,20,9.24,IE,1702258548
351,uusikaupunki,60.8004,21.4084,20.75,95,100,8.3,FI,1702258548
352,coquimbo,-29.9533,-71.3436,60.53,77,0,3.44,CL,1702258548
353,ketchikan,55.3422,-131.6461,39.18,86,0,0.0,US,1702258469
354,guerrero negro,27.9769,-114.0611,66.45,45,0,6.31,MX,1702258549
355,llandudno,53.325,-3.8315,49.98,49,97,11.01,GB,1702258412
356,baishan,41.9431,126.4286,19.33,52,100,3.83,CN,1702258549
357,igarka,67.4667,86.5833,-21.26,98,100,6.04,RU,1702258550
358,labytnangi,66.6572,66.4183,-18.72,99,100,7.9,RU,1702258550
359,udachny,66.4167,112.4,-14.6,96,100,11.74,RU,1702258550
360,ves'yegonsk,58.664,37.2604,13.39,93,100,9.26,RU,1702258550
361,shetpe,44.1667,52.1167,24.48,95,98,17.36,KZ,1702258551
362,malanville,11.8685,3.3899,68.99,17,44,7.87,BJ,1702258498
363,tamale,9.4008,-0.8393,77.61,15,6,3.04,GH,1702258552
364,la passe,45.5549,-0.8967,61.03,83,100,24.79,FR,1702258552
365,savanna-la-mar,18.219,-78.1332,82.35,84,7,3.67,JM,1702258552
366,pukchil-lodongjagu,40.2019,125.7483,25.57,87,100,6.44,KP,1702258553
367,berezovyy,51.6667,135.7,-5.66,53,3,7.09,RU,1702258553
368,cidade velha,14.9167,-23.6167,73.87,78,20,6.91,CV,1702258553
369,aitape,-3.1374,142.3475,85.95,69,90,7.14,PG,1702258553
370,pamandzi,-12.7967,45.2794,83.98,79,20,14.97,YT,1702258554
371,nagqu,31.5,92.0,9.93,37,0,4.43,CN,1702258554
372,mahina,-17.5065,-149.489,87.57,66,75,8.05,PF,1702258554
373,dongxi,28.7614,106.6611,59.22,86,100,1.05,CN,1702258555
374,gadzhiyevo,69.2551,33.3362,6.42,92,86,15.28,RU,1702258555
375,waitara,-38.925,174.25,63.0,68,66,13.35,NZ,1702258555
376,awjilah,29.1081,21.2869,55.29,71,0,8.57,LY,1702258556
377,usogorsk,63.4106,48.6872,-5.33,93,100,10.09,RU,1702258556
378,pacific grove,36.6177,-121.9166,59.43,63,0,7.0,US,1702258556
379,moshkovo,55.3053,83.6104,-21.35,95,55,8.43,RU,1702258557
380,corowa,-36.0333,146.3833,91.58,37,97,8.43,AU,1702258557
381,inari,68.906,27.0288,7.0,91,100,9.95,FI,1702258557
382,portland,45.5234,-122.6762,54.28,95,100,5.99,US,1702258338
383,oranjemund,-28.55,16.4333,59.9,94,5,7.99,NA,1702258558
384,howard springs,-12.497,131.047,84.87,78,15,5.35,AU,1702258558
385,remire-montjoly,4.9167,-52.2667,80.64,83,75,5.75,GF,1702258559
386,nolensville,35.9523,-86.6694,39.02,71,100,10.36,US,1702258559
387,zalukokoazhe,43.9039,43.2156,35.83,96,99,6.58,RU,1702258559
388,pekanbaru,0.5333,101.45,77.32,100,20,3.44,ID,1702258559
389,lewiston orchards,46.3804,-116.9754,44.51,79,100,16.11,US,1702258400
390,afaahiti,-17.75,-149.2833,85.87,81,73,25.17,PF,1702258560
391,puerto deseado,-47.7503,-65.8938,65.46,45,100,15.7,AR,1702258560
392,kokopo,-4.352,152.2633,77.27,89,100,2.28,PG,1702258561
393,scottburgh,-30.2867,30.7532,65.86,86,100,6.08,ZA,1702258561
394,tshabong,-26.05,22.45,66.6,22,2,6.29,BW,1702258561
395,la palma,33.8464,-118.0467,70.9,40,0,5.75,US,1702258445
396,padangsidempuan,1.3667,99.2667,77.67,88,100,2.01,ID,1702258562
397,bouarfa,32.53,-1.95,52.09,55,1,3.65,MA,1702258562
398,tanjung pandan,-2.75,107.65,82.98,76,86,5.86,ID,1702258563
399,cockburn town,21.4612,-71.1419,78.76,69,40,14.97,TC,1702258563
400,floro,61.5996,5.0328,41.97,70,39,11.5,NO,1702258563
401,letlhakane,-21.4167,25.5833,66.81,82,100,5.44,BW,1702258564
402,island harbour,50.724,-1.2758,53.92,82,85,10.0,GB,1702258564
403,beyneu,45.3167,55.2,19.22,46,73,21.09,KZ,1702258564
404,manaquiri,-3.3167,-60.35,86.45,82,99,3.2,BR,1702258564
405,sandnessjoen,66.0217,12.6316,21.72,81,37,16.98,NO,1702258565
406,lerwick,60.1545,-1.1494,44.6,77,100,11.21,GB,1702258565
407,carbonear,47.7332,-53.2148,31.14,90,88,8.93,CA,1702258566
408,dashiqiao,40.6373,122.5025,15.75,36,100,17.25,CN,1702258566
409,shengli,37.4564,118.4856,30.38,88,100,14.79,CN,1702258566
410,peterhead,57.5058,-1.7981,43.2,90,100,22.46,GB,1702258567
411,freetown,8.484,-13.2299,79.41,79,61,4.16,SL,1702258567
412,panji,-7.7253,114.0995,86.7,57,100,3.31,ID,1702258567
413,pocone,-16.2567,-56.6228,80.2,66,99,3.49,BR,1702258568
414,kapuskasing,49.4169,-82.4331,21.29,86,100,10.36,CA,1702258391
415,port augusta,-32.5,137.7667,73.42,52,96,18.75,AU,1702258568
416,kegeyli shahar,42.7767,59.6078,15.89,37,100,19.89,UZ,1702258405
417,manaure,11.7751,-72.4445,81.03,75,6,19.48,CO,1702258569
418,boa vista,2.8197,-60.6733,84.18,61,0,8.05,BR,1702258569
419,ylitornio,66.3089,23.6773,7.74,98,100,3.53,FI,1702258569
420,lethem,3.3803,-59.7968,81.39,61,8,8.48,GY,1702258513
421,hobyo,5.3505,48.5268,80.37,75,95,19.22,SO,1702258453
422,buka,40.8108,69.1986,37.8,60,100,2.06,UZ,1702258571
423,gassol,8.5333,10.4667,70.7,21,1,5.73,NG,1702258571
424,illapel,-31.6308,-71.1653,66.79,74,79,2.98,CL,1702258306
425,flekkefjord,58.2971,6.6607,34.95,78,100,21.68,NO,1702258572
426,morant bay,17.8815,-76.4093,83.82,84,17,11.77,JM,1702258572
427,kapa'a,22.0752,-159.319,80.92,78,20,9.22,US,1702258427
428,as saffaniyah,27.9708,48.73,69.76,40,100,8.68,SA,1702258572
429,stephenville,32.2207,-98.2023,44.73,29,0,0.0,US,1702258543
430,benton,36.3334,-94.3335,39.11,57,0,0.0,US,1702258573
431,capbreton,43.6422,-1.4282,63.32,98,100,6.17,FR,1702258573
432,priargunsk,50.3691,119.1012,-34.58,98,64,1.68,RU,1702258574
433,yinchuan,38.4681,106.2731,33.69,38,100,0.45,CN,1702258574
434,tocopilla,-22.092,-70.1979,67.6,65,3,2.64,CL,1702258574
435,jayapura,-2.5333,140.7,90.79,79,87,7.27,ID,1702258575
436,carutapera,-1.195,-46.02,79.57,80,78,8.05,BR,1702258575
437,brandon,27.9378,-82.2859,67.91,94,0,5.99,US,1702258575
438,susuman,62.7833,148.1667,-12.01,99,93,5.01,RU,1702258576
439,tulle,45.3333,1.8333,55.54,98,100,9.62,FR,1702258576
440,mumford,5.2618,-0.759,80.11,81,6,3.71,GH,1702258576
441,sinabang,2.4803,96.3801,79.12,84,100,3.44,ID,1702258577
442,greenville,35.6127,-77.3663,64.56,98,100,9.22,US,1702258577
443,burry port,51.6843,-4.2469,52.2,86,100,25.32,GB,1702258577
444,mokhsogollokh,61.4681,128.9203,-15.93,88,100,10.36,RU,1702258578
445,kostroma,57.7708,40.9344,7.21,94,100,14.0,RU,1702258578
446,chandler,33.3062,-111.8412,64.45,21,0,5.75,US,1702258567
447,inhambane,-23.865,35.3833,77.81,93,57,9.6,MZ,1702258579
448,saint-pierre,-21.3393,55.4781,74.88,78,0,6.91,RE,1702258416
449,castres,43.5833,2.1667,57.43,100,0,3.44,FR,1702258580
450,serrana,-21.2114,-47.5956,69.75,95,100,2.28,BR,1702258346
451,moires,35.0532,24.8744,53.22,82,100,2.84,GR,1702258580
452,siwa oasis,29.2041,25.5195,57.9,55,20,9.01,EG,1702258580
453,luanco,43.6152,-5.7934,67.48,95,100,5.82,ES,1702258581
454,santiago de cao,-7.9589,-79.2392,68.13,83,75,8.05,PE,1702258581
455,timbuktu,16.7735,-3.0074,66.45,18,6,11.12,ML,1702258457
456,ulimang,7.6242,134.6421,86.41,77,12,14.85,PW,1702258376
457,ahmadpur east,29.1431,71.2598,60.37,24,0,6.4,PK,1702258582
458,saudarkrokur,65.7461,-19.6394,27.57,90,100,10.8,IS,1702258582
459,aconibe,1.2968,10.9369,68.99,98,100,2.37,GQ,1702258582
460,nuriootpa,-34.4833,139.0,74.55,42,83,9.4,AU,1702258439
461,richards bay,-28.783,32.0377,66.83,93,100,8.9,ZA,1702258583
462,hirara,24.8,125.2833,79.07,78,75,10.36,JP,1702258583
463,prado,-17.3411,-39.2208,74.35,88,0,0.54,BR,1702258285
464,fort-shevchenko,44.5086,50.263,30.18,89,99,19.51,KZ,1702258584
465,san luis de la loma,17.2706,-100.8939,79.99,74,100,4.27,MX,1702258584
466,salinas,36.6777,-121.6555,59.83,56,0,0.0,US,1702258564
467,pierre,44.3683,-100.351,32.86,76,40,5.75,US,1702258585
468,breves,-1.6822,-50.4803,79.02,81,99,6.82,BR,1702258585
469,san salvador de jujuy,-24.1946,-65.2971,65.73,91,77,2.64,AR,1702258586
470,kupang,-10.1667,123.5833,86.58,79,40,5.75,ID,1702258586
471,dzuunmod,48.2199,97.3744,-11.13,83,3,5.73,MN,1702258586
472,yarmouth,41.7057,-70.2286,59.65,95,100,13.8,US,1702258336
473,bandiagara,14.3501,-3.6104,70.52,17,6,8.5,ML,1702258587
474,antalaha,-14.9003,50.2788,73.58,88,85,5.53,MG,1702258587
475,juegang,32.3174,121.1855,51.82,89,100,21.03,CN,1702258587
476,yuzhno-kurilsk,44.0306,145.8556,33.37,76,93,18.01,RU,1702258588
477,metlili chaamba,32.2667,3.6333,55.42,48,4,7.76,DZ,1702258588
478,noshiro,40.2039,140.0242,41.83,55,48,9.31,JP,1702258588
479,kyabe,9.4515,18.9449,73.44,21,99,6.29,TD,1702258589
480,buchanan,5.8808,-10.0467,79.77,83,57,5.12,LR,1702258589
481,port douglas,-16.4833,145.4667,84.79,60,63,10.83,AU,1702258590
482,tukrah,32.5341,20.5791,59.68,84,26,14.79,LY,1702258590
483,goroka,-6.0834,145.3873,74.62,72,94,2.98,PG,1702258590
484,zeya,53.75,127.2667,-14.51,76,3,5.97,RU,1702258591
485,chimbote,-9.0853,-78.5783,67.05,86,98,8.52,PE,1702258465
486,melekeok village,7.4957,134.6367,86.56,74,75,11.5,PW,1702258591
487,altay,47.8667,88.1167,7.18,67,100,6.29,CN,1702258592
488,douentza,14.9951,-2.9517,67.42,22,7,4.18,ML,1702258592
489,samdari,25.8167,72.5833,61.92,34,0,3.18,IN,1702258592
490,leer,53.2316,7.461,48.18,94,70,1.01,DE,1702258593
491,santa ana,33.7456,-117.8678,70.65,39,40,6.91,US,1702258593
492,bakchar,57.0186,82.0711,-21.89,95,28,6.58,RU,1702258593
493,piton saint-leu,-21.2196,55.3151,71.71,78,0,6.91,RE,1702258594
494,kurmuk,10.55,34.2833,73.76,29,6,4.18,SD,1702258594
495,madison,34.7334,-86.5667,40.41,75,40,14.97,US,1702258457
496,san luis,-33.295,-66.3356,76.3,36,40,18.21,AR,1702258466
497,mossel bay,-34.1831,22.146,62.28,81,3,4.47,ZA,1702258595
498,vikulovo,56.8167,70.6107,-24.97,98,44,7.47,RU,1702258595
499,crane,31.3974,-102.3501,48.13,23,0,4.61,US,1702258596
500,al kharijah,25.4514,30.5464,59.88,32,10,4.12,EG,1702258596
501,turpan,42.9333,89.1667,30.65,73,31,1.57,CN,1702258596
502,rawson,-43.3002,-65.1023,68.7,43,93,26.53,AR,1702258597
503,maragogi,-9.0122,-35.2225,77.61,79,1,7.29,BR,1702258597
504,bocas del toro,9.3333,-82.25,75.0,83,36,7.0,PA,1702258597
505,tidjikja,18.5564,-11.4271,66.31,24,4,15.3,MR,1702258597
506,narvik,68.4384,17.4272,24.21,74,98,5.5,NO,1702258598
507,kalilangan,7.8211,124.7314,77.76,66,49,2.64,PH,1702258598
508,ataq,14.5377,46.8319,56.08,34,7,2.68,YE,1702258598
509,leua,48.2156,18.6071,36.5,100,100,5.44,SK,1702258599
510,nouadhibou,20.931,-17.0347,71.58,53,4,11.5,MR,1702258599
511,okoneshnikovo,54.8377,75.0834,-16.6,99,95,7.81,RU,1702258599
512,rosarito,32.3333,-117.0333,66.24,40,71,4.85,MX,1702258599
513,luis correia,-2.8792,-41.6669,80.26,80,99,15.75,BR,1702258600
514,narayanganj,23.6233,90.5011,64.42,51,0,4.14,BD,1702258600
515,revda,56.801,59.9303,-31.07,100,71,2.77,RU,1702258600
516,ambovombe,-25.1667,46.0833,74.55,85,65,2.35,MG,1702258601
517,slave lake,55.2834,-114.769,31.98,59,100,17.27,CA,1702258326
518,viru,-8.4167,-78.75,71.67,73,100,3.36,PE,1702258601
519,happy valley-goose bay,53.3168,-60.3315,37.71,70,100,9.22,CA,1702258601
520,ndele,8.4109,20.6473,73.69,25,99,2.24,CF,1702258602
521,jianguang,28.1938,115.7836,57.34,85,100,12.46,CN,1702258602
522,chiredzi,-21.05,31.6667,71.44,92,100,6.4,ZW,1702258602
523,mejit,10.2753,170.8646,80.91,77,100,19.04,MH,1702258603
524,galliano,29.4422,-90.2992,55.4,62,0,8.21,US,1702258603
525,chos malal,-37.3781,-70.2709,75.43,23,51,8.48,AR,1702258603
526,cu chi,10.9667,106.4667,82.42,71,100,6.13,VN,1702258604
527,haiku-pauwela,20.9219,-156.3051,86.02,60,40,13.8,US,1702258604
528,ceeldheer,3.8488,47.1806,78.64,83,6,14.03,SO,1702258605
529,mogocha,53.7333,119.7667,-21.12,78,5,1.92,RU,1702258605
530,tabou,4.423,-7.3528,79.3,83,4,4.9,CI,1702258605
531,parauna,-16.9478,-50.4486,73.69,77,100,2.91,BR,1702258606
532,wuyang,31.9925,116.2472,37.45,80,100,9.66,CN,1702258606
533,rocha,-34.4833,-54.3333,57.54,97,0,4.14,UY,1702258606
534,petropavlovsk-kamchatsky,53.0452,158.6483,34.39,95,75,15.01,RU,1702258607
535,obihiro,42.9172,143.2044,33.21,41,6,14.67,JP,1702258607
536,kyzyl,51.7,94.45,-28.98,99,99,1.01,RU,1702258607
537,castro,-24.7911,-50.0119,61.5,96,100,4.16,BR,1702258608
538,palos de la frontera,37.2346,-6.8947,55.36,86,0,3.0,ES,1702258608
539,sarkand,45.41,79.9186,20.01,90,100,1.52,KZ,1702258608
540,country club estates,31.2127,-81.4643,64.42,99,75,9.22,US,1702258608
541,minbu,20.1833,94.8833,74.77,70,8,7.4,MM,1702258609
542,komsomol'skiy,43.9783,46.6985,37.02,79,99,7.05,RU,1702258609
543,canutama,-6.5339,-64.3831,81.57,73,90,2.21,BR,1702258609
544,lospalos,-8.5186,127.0025,86.58,56,96,0.49,TL,1702258610
545,buenaventura,3.8801,-77.0312,76.98,96,100,2.71,CO,1702258610
546,st. john's,47.5649,-52.7093,30.67,91,0,8.05,CA,1702258538
547,aceuchal,38.6712,-6.4963,48.49,90,0,2.24,ES,1702258610
548,kirakira,-10.4544,161.9205,81.54,83,96,0.4,SB,1702258611
549,corner brook,48.9667,-57.9484,26.76,89,100,5.66,CA,1702258516
550,hailar,49.2,119.7,-25.15,97,60,4.25,CN,1702258611
551,melfort,52.8667,-104.6177,26.73,80,100,10.36,CA,1702258611
552,zhenlai,45.8495,123.2973,3.51,56,23,3.02,CN,1702258612
553,sekong,-6.3996,106.0252,85.35,65,54,4.29,ID,1702258612
554,xai-xai,-25.0519,33.6442,75.56,92,67,7.72,MZ,1702258612
555,sambava,-14.2667,50.1667,75.56,89,99,7.76,MG,1702258613
556,ad darb,17.7229,42.2526,75.87,76,23,5.32,SA,1702258613
557,rapla,59.0072,24.7928,21.88,95,100,7.4,EE,1702258613
558,anjiang,27.3194,110.1031,50.56,92,100,6.13,CN,1702258614
559,lowell,42.6334,-71.3162,61.84,84,100,12.66,US,1702258463
560,nanning,22.8167,108.3167,72.05,82,90,7.45,CN,1702258615
561,aleg,17.0481,-13.9209,73.63,19,37,12.15,MR,1702258615
562,chania,35.5122,24.0156,53.2,87,75,0.0,GR,1702258595
563,dumai,1.6833,101.45,79.88,88,100,2.46,ID,1702258615
564,alo,7.4178,6.7371,83.26,43,99,0.96,NG,1702258616
565,la peca,-5.6111,-78.435,69.89,87,20,3.87,PE,1702258616
566,pangoa,-12.1167,-73.0,69.22,98,14,3.09,PE,1702258616
567,arizona city,32.7559,-111.671,59.59,21,3,6.4,US,1702258616
568,rawai,7.7797,98.3253,82.51,81,86,7.54,TH,1702258617
569,imbituba,-28.24,-48.6703,72.86,95,100,14.97,BR,1702258617
570,codrington,-38.2667,141.9667,64.42,76,100,15.7,AU,1702258617
571,saacow,1.6279,42.4407,76.39,82,6,7.07,SO,1702258618
572,paracale,14.2804,122.7881,83.64,77,92,9.86,PH,1702258618
573,vila franca do campo,37.7167,-25.4333,64.89,99,100,11.99,PT,1702258334
574,cabo san lucas,22.8909,-109.9124,79.11,50,0,4.61,MX,1702258578
575,ar ruways,24.1103,52.7306,72.25,69,88,7.27,AE,1702258619
576,douvres-la-delivrande,49.2947,-0.3804,54.14,82,100,23.02,FR,1702258619
577,miquelon,47.0975,-56.3814,37.4,90,100,17.25,PM,1702258619
